[{"_id": {"$oid": "656f6471d9402fe8408fc306"}, "name": "Slobodka (of P. Partsch)", "id": 23646, "nametype": "Valid", "recclass": "L6", "mass(g)": 950.0, "fall": "Found", "year": 1838, "reclat": 55.0, "reclong": 35.0, "geolocation": "(55.0, 35.0)"}, {"_id": {"$oid": "656f6471d9402fe8408ff3f6"}, "name": "Berdyansk", "id": 5027, "nametype": "Valid", "recclass": "L6", "mass(g)": 2250.0, "fall": "Found", "year": 1843, "reclat": 46.75, "reclong": 36.81667, "geolocation": "(46.75, 36.81667)"}, {"_id": {"$oid": "656f6471d9402fe8408f9787"}, "name": "Mainz", "id": 15389, "nametype": "Valid", "recclass": "L6", "mass(g)": 1700.0, "fall": "Found", "year": 1852, "reclat": 50.0, "reclong": 8.26667, "geolocation": "(50.0, 8.26667)"}, {"_id": {"$oid": "656f6471d9402fe8408f9674"}, "name": "Lutschaunig's Stone", "id": 14762, "nametype": "Valid", "recclass": "L6", "mass(g)": 100000.0, "fall": "Found", "year": 1861, "reclat": -27.0, "reclong": -70.0, "geolocation": "(-27.0, -70.0)"}, {"_id": {"$oid": "656f6471d9402fe8408fc52f"}, "name": "Wairarapa Valley", "id": 24199, "nametype": "Valid", "recclass": "H6", "mass(g)": 6000.0, "fall": "Found", "year": 1863, "reclat": -41.31667, "reclong": 175.13333, "geolocation": "(-41.31667, 175.13333)"}, {"_id": {"$oid": "656f6471d9402fe8408fc52b"}, "name": "Waconda", "id": 24195, "nametype": "Valid", "recclass": "L6", "mass(g)": 50000.0, "fall": "Found", "year": 1873, "reclat": 39.33333, "reclong": -98.16667, "geolocation": "(39.33333, -98.16667)"}, {"_id": {"$oid": "656f6471d9402fe8408f978d"}, "name": "Makarewa", "id": 15392, "nametype": "Valid", "recclass": "L6", "mass(g)": 2300.0, "fall": "Found", "year": 1879, "reclat": -46.31667, "reclong": 168.4, "geolocation": "(-46.31667, 168.4)"}, {"_id": {"$oid": "656f6471d9402fe8408ffa8f"}, "name": "Densmore (1879)", "id": 6656, "nametype": "Valid", "recclass": "L6", "mass(g)": 37200.0, "fall": "Found", "year": 1879, "reclat": 39.65, "reclong": -99.68333, "geolocation": "(39.65, -99.68333)"}, {"_id": {"$oid": "656f6471d9402fe8408fa373"}, "name": "Muizenberg", "id": 16844, "nametype": "Valid", "recclass": "L6", "mass(g)": 4610.0, "fall": "Found", "year": 1880, "reclat": -34.1, "reclong": 18.46667, "geolocation": "(-34.1, 18.46667)"}, {"_id": {"$oid": "656f6471d9402fe8408fc2dd"}, "name": "Silverton (New South Wales)", "id": 23600, "nametype": "Valid", "recclass": "L6", "mass(g)": 350.7, "fall": "Found", "year": 1883, "reclat": -31.88333, "reclong": 141.2, "geolocation": "(-31.88333, 141.2)"}, {"_id": {"$oid": "656f6471d9402fe840900ca3"}, "name": "Estacado", "id": 10057, "nametype": "Valid", "recclass": "H6", "mass(g)": 290000.0, "fall": "Found", "year": 1883, "reclat": 33.9, "reclong": -101.75, "geolocation": "(33.9, -101.75)"}, {"_id": {"$oid": "656f6471d9402fe84090214a"}, "name": "Kulnine", "id": 12372, "nametype": "Valid", "recclass": "L6", "mass(g)": 55300.0, "fall": "Found", "year": 1886, "reclat": -34.15, "reclong": 141.78333, "geolocation": "(-34.15, 141.78333)"}, {"_id": {"$oid": "656f6471d9402fe8408fc012"}, "name": "San Pedro Springs", "id": 23131, "nametype": "Valid", "recclass": "L6", "mass(g)": 72.0, "fall": "Found", "year": 1887, "reclat": 29.5, "reclong": -98.5, "geolocation": "(29.5, -98.5)"}, {"_id": {"$oid": "656f6471d9402fe8408faf51"}, "name": "Pipe Creek", "id": 18830, "nametype": "Valid", "recclass": "H6", "mass(g)": 13600.0, "fall": "Found", "year": 1887, "reclat": 29.68333, "reclong": -98.91667, "geolocation": "(29.68333, -98.91667)"}, {"_id": {"$oid": "656f6471d9402fe840901e34"}, "name": "Indio Rico", "id": 12032, "nametype": "Valid", "recclass": "H6", "mass(g)": 15000.0, "fall": "Found", "year": 1887, "reclat": -38.33333, "reclong": -60.88333, "geolocation": "(-38.33333, -60.88333)"}, {"_id": {"$oid": "656f6471d9402fe840900c84"}, "name": "Eli Elwah", "id": 10013, "nametype": "Valid", "recclass": "L6", "mass(g)": 15200.0, "fall": "Found", "year": 1888, "reclat": -34.5, "reclong": 144.71667, "geolocation": "(-34.5, 144.71667)"}, {"_id": {"$oid": "656f6471d9402fe840900d02"}, "name": "Franklinville", "id": 10179, "nametype": "Valid", "recclass": "L6", "mass(g)": 108.0, "fall": "Found", "year": 1888, "reclat": 38.5, "reclong": -100.0, "geolocation": "(38.5, -100.0)"}, {"_id": {"$oid": "656f6471d9402fe8408fc44d"}, "name": "Thomson", "id": 23973, "nametype": "Valid", "recclass": "L6", "mass(g)": 218.0, "fall": "Found", "year": 1888, "reclat": 33.46667, "reclong": -82.48333, "geolocation": "(33.46667, -82.48333)"}, {"_id": {"$oid": "656f6471d9402fe8408fa2fd"}, "name": "Minas Gerais", "id": 16693, "nametype": "Valid", "recclass": "L6", "mass(g)": 1224.0, "fall": "Found", "year": 1888, "reclat": -18.5, "reclong": -44.0, "geolocation": "(-18.5, -44.0)"}, {"_id": {"$oid": "656f6471d9402fe8408fa316"}, "name": "Morland", "id": 16746, "nametype": "Valid", "recclass": "H6", "mass(g)": 295000.0, "fall": "Found", "year": 1890, "reclat": 39.33333, "reclong": -100.06667, "geolocation": "(39.33333, -100.06667)"}, {"_id": {"$oid": "656f6471d9402fe840902adf"}, "name": "Long Island", "id": 14694, "nametype": "Valid", "recclass": "L6", "mass(g)": 564000.0, "fall": "Found", "year": 1891, "reclat": 39.93333, "reclong": -99.6, "geolocation": "(39.93333, -99.6)"}, {"_id": {"$oid": "656f6471d9402fe8408ff57a"}, "name": "Cobija", "id": 5388, "nametype": "Valid", "recclass": "H6", "mass(g)": 6530.0, "fall": "Found", "year": 1892, "reclat": -22.56667, "reclong": -70.25, "geolocation": "(-22.56667, -70.25)"}, {"_id": {"$oid": "656f6471d9402fe8408fa3bd"}, "name": "Ness County (1894)", "id": 16946, "nametype": "Valid", "recclass": "L6", "mass(g)": 82000.0, "fall": "Found", "year": 1894, "reclat": 38.5, "reclong": -99.6, "geolocation": "(38.5, -99.6)"}, {"_id": {"$oid": "656f6471d9402fe8408fab75"}, "name": "Oakley (stone)", "id": 17973, "nametype": "Valid", "recclass": "H6", "mass(g)": 27700.0, "fall": "Found", "year": 1895, "reclat": 38.95, "reclong": -101.01667, "geolocation": "(38.95, -101.01667)"}, {"_id": {"$oid": "656f6471d9402fe8408fabed"}, "name": "Pampa del Infierno", "id": 18091, "nametype": "Valid", "recclass": "L6", "mass(g)": 896.0, "fall": "Found", "year": 1895, "reclat": -26.68333, "reclong": -61.08333, "geolocation": "(-26.68333, -61.08333)"}, {"_id": {"$oid": "656f6471d9402fe8408fed87"}, "name": "Andryushki", "id": 2297, "nametype": "Valid", "recclass": "L6", "mass(g)": 26.6, "fall": "Found", "year": 1898, "reclat": 49.65, "reclong": 29.63333, "geolocation": "(49.65, 29.63333)"}, {"_id": {"$oid": "656f6471d9402fe8408ff440"}, "name": "Bond Springs", "id": 5102, "nametype": "Valid", "recclass": "H6", "mass(g)": 6.2, "fall": "Found", "year": 1898, "reclat": -23.5, "reclong": 133.83333, "geolocation": "(-23.5, 133.83333)"}, {"_id": {"$oid": "656f6471d9402fe840902102"}, "name": "Karagai", "id": 12255, "nametype": "Valid", "recclass": "L6", "mass(g)": 115.0, "fall": "Found", "year": 1900, "reclat": 51.11667, "reclong": 57.91667, "geolocation": "(51.11667, 57.91667)"}, {"_id": {"$oid": "656f6471d9402fe840901023"}, "name": "Garraf", "id": 10863, "nametype": "Valid", "recclass": "L6", "mass(g)": 8800.0, "fall": "Found", "year": 1905, "reclat": 41.26667, "reclong": 1.91667, "geolocation": "(41.26667, 1.91667)"}, {"_id": {"$oid": "656f6471d9402fe8408ff5a4"}, "name": "Coon Butte", "id": 5436, "nametype": "Valid", "recclass": "L6", "mass(g)": 2750.0, "fall": "Found", "year": 1905, "reclat": 35.0, "reclong": -111.0, "geolocation": "(35.0, -111.0)"}, {"_id": {"$oid": "656f6471d9402fe8408faf44"}, "name": "Pickens County", "id": 18815, "nametype": "Valid", "recclass": "H6", "mass(g)": 400.0, "fall": "Found", "year": 1908, "reclat": 34.5, "reclong": -84.5, "geolocation": "(34.5, -84.5)"}, {"_id": {"$oid": "656f6471d9402fe840901db4"}, "name": "Hermitage Plains", "id": 11877, "nametype": "Valid", "recclass": "L6", "mass(g)": 32000.0, "fall": "Found", "year": 1909, "reclat": -31.73333, "reclong": 146.4, "geolocation": "(-31.73333, 146.4)"}, {"_id": {"$oid": "656f6471d9402fe8408ff4ad"}, "name": "Cadell", "id": 5193, "nametype": "Valid", "recclass": "L6", "mass(g)": 3290.0, "fall": "Found", "year": 1910, "reclat": -34.06667, "reclong": 139.75, "geolocation": "(-34.06667, 139.75)"}]